{"categories":[{"name":"Dining","marker":{"url":"http:\/\/staging.mint.mtcdev.com\/wp-content\/uploads\/2017\/03\/poi-marker.png","width":12,"height":12},"pois":[{"name":"Texas de Brazil","url":"texasdebrazil.com","address":"8390 Northfield Blvd, #1800, Denver, CO 80238","lat":39.7838329,"lng":-104.8908793},{"name":"HuHot Mongolian Grill","url":"huhot.com","address":"8336 Northfield Blvd, #1600, Denver, CO 80238","lat":39.7848823,"lng":-104.8919935},{"name":"Brothers Bar & Grill","url":"brothersbar.com","address":"8270 Northfield Blvd, #1480, Denver, CO 80238","lat":39.7817023,"lng":-104.8922454},{"name":"Red Robin Burger Works","url":"rrburgerworks.com","address":"8270 Northfield Blvd #1493, Denver, CO 80238","lat":39.7817023,"lng":-104.8922454},{"name":"Salati Italian Street Food","url":"salatiitalianstreetfood.com","address":"8340 Northfield Blvd #1690, Denver, CO 80238","lat":39.7820538,"lng":-104.892523},{"name":"La Sandia Cantina","url":"richardsandoval.com","address":"8340 Northfield Blvd #1690, Denver, CO 80238","lat":39.7820538,"lng":-104.892523},{"name":"Zen Asian Sushi Bar & Grill","url":"zensushinorthfield.com","address":"8354 Northfield Blvd, #1710, Denver, CO 80238","lat":39.7827033,"lng":-104.8914384},{"name":"Bar Louie","url":"barlouie.com","address":"8332 Northfield Blvd, #1595, Denver, CO 80238","lat":39.7854778,"lng":-104.8953227},{"name":"TGI Friday's","url":"tgifridays.com","address":"8104 E 49th Ave, Denver, CO 80238","lat":39.7852098,"lng":-104.8935799},{"name":"Del Taco","url":"deltaco.com","address":"8100 Northfield Blvd, Denver, CO 80238","lat":39.785306,"lng":-104.8945022},{"name":"Wahoo's Fish Taco","url":"wahoos.com","address":"7980 Northfield Blvd, Denver, CO 80238","lat":39.7853108,"lng":-104.8953393},{"name":"Cuba Cuba Sandwicheria","url":"cubacubasandwicheria.com","address":"8261 Northfield Blvd, Denver, CO 80238","lat":39.7854778,"lng":-104.895326},{"name":"Torchy's Tacos","url":"torchystacos.com","address":"8281 Northfield Blvd, Denver, CO 80238","lat":39.7860495,"lng":-104.8922861},{"name":"Brixx Wood Fired Pizza","url":"","address":"8351 Northfield Blvd, Denver, CO 80238","lat":39.7854657,"lng":-104.8898562},{"name":"Tokyo Joe's","url":"tokyojoes.com","address":"8391 Northfield Blvd, Denver, CO 80238","lat":39.7854516,"lng":-104.8894341},{"name":"Chipotle Mexican Grill","url":"chipotle.com","address":"5988 Dahlia St, Commerce City, CO 80022","lat":39.8039526,"lng":-104.9308156},{"name":"Burrito Co.","url":"","address":"6025 Parkway Dr, Commerce City, CO 80022","lat":39.8070785,"lng":-104.93072},{"name":"Pizza Hut","url":"pizzahut.com","address":"6125 Parkway Dr, Commerce City, CO 80022","lat":39.8080741,"lng":-104.9288902},{"name":"Golden Town","url":"goldentowncommercecity.com","address":"5976 E 64th Ave, Commerce City, CO 80022","lat":39.812849,"lng":-104.9183596},{"name":"La Flor De Michoacan","url":"","address":"5996 E 64th Ave, Commerce City, CO 80022","lat":39.8114174,"lng":-104.9184808},{"name":"Taco Mec","url":"","address":"6101 E 64th Ave, Commerce City, CO 80022","lat":39.8131902,"lng":-104.9172097},{"name":"Pudge Bros. Pizza","url":"pudgebrosofcommerce.com","address":"6085 E 64th Ave, Commerce City, CO 80022","lat":39.8131825,"lng":-104.9178431},{"name":"Tortas Ahogadas El Tapatio","url":"","address":"7191 Quebec St, Commerce City, CO 80022","lat":39.8269514,"lng":-104.9036277},{"name":"Casillas Bakery & Restaurant","url":"","address":"7215 E 72nd Ave, Commerce City, CO 80022","lat":39.8274646,"lng":-104.9049544},{"name":"La Casa Del Rey","url":"lacasadelrey.net","address":"7035 E 72nd Ave, Commerce City, CO 80022","lat":39.8276531,"lng":-104.9063139},{"name":"Tacos y Salsas","url":"tacos303.com","address":"6895 E 72nd Ave, Commerce City, CO 80022","lat":39.8275042,"lng":-104.9082438},{"name":"Tasty Donuts","url":"","address":"6441 E 72nd Pl, Commerce City, CO 80022","lat":39.8284239,"lng":-104.9128421},{"name":"Smashburger","url":"smashburger.com","address":"7305 E 35th Ave, Denver, CO 80238","lat":39.7659068,"lng":-104.9016982},{"name":"Taste of Asia","url":"","address":"7505 E 35th Ave, Denver, CO 80238","lat":39.7658958,"lng":-104.9002889},{"name":"Buffalo Wild Wings","url":"buffalowildwings.com","address":"7607 E 36th Ave, Denver, CO 80238","lat":39.7677184,"lng":-104.8993261},{"name":"Famous Dave's","url":"famousdaves.com","address":"7557 E 36th Ave, Denver, CO 80238","lat":39.767647,"lng":-104.9000044},{"name":"Country Buffet","url":"locations.buffet.com","address":"7407 E 36th Ave, Denver, CO 80238","lat":39.7676742,"lng":-104.9011381},{"name":"Four Friends Kitchen","url":"fourfriendskitchen.com","address":"2893 Roslyn St, Denver, CO 80238","lat":39.7572698,"lng":-104.9007393},{"name":"Casey's Bistro & Pub","url":"caseysbistroandpub.com","address":"7301 E 29th Ave, Denver, CO 80238","lat":39.7583031,"lng":-104.9027364},{"name":"Cold Stone Creamery","url":"coldstonecreamery.com","address":"7473 E 29th Pl #301, Denver, CO 80238","lat":39.7581971,"lng":-104.9012647},{"name":"Noodles & Company","url":"noodles.com","address":"7401 E 29th Ave, Denver, CO 80238","lat":39.7582152,"lng":-104.9015203}]},{"name":"Parks & Entertainment","marker":{"url":"http:\/\/staging.mint.mtcdev.com\/wp-content\/uploads\/2017\/03\/poi-marker.png","width":12,"height":12},"pois":[{"name":"Improv Comedy Club & Dinner Theatre","url":"denver.improv.com","address":"8246 Northfield Blvd, Denver, CO 80238","lat":39.7820744,"lng":-104.8926934},{"name":"Dick's Sporting Goods Park","url":"dickssportinggoodspark.com","address":"6000 Victory Way, Commerce City, CO 80022","lat":39.8056867,"lng":-104.8918117},{"name":"Willow Basin Park","url":"","address":"Spruce St & E 56th Ave, Denver, CO 80216","lat":39.7984061,"lng":-104.8972674},{"name":"Northfield Pond Park","url":"","address":"4801 Spruce Way, Denver, CO 80230","lat":39.6611966,"lng":-104.8989075},{"name":"Runway 35 Park","url":"","address":"8863 E 47th Ave, Denver, CO 80238","lat":39.7825058,"lng":-104.8756867},{"name":"Conservatory Green Pocket Park","url":"","address":"8073 E 50th Dr, Denver, CO 80238","lat":39.7909201,"lng":-104.8946716},{"name":"Veterans Memorial Park","url":"","address":"6015 Forest Dr, Commerce City, CO 80022","lat":39.8071241,"lng":-104.9275385},{"name":"Wicker Park","url":"","address":"E 51st Dr & Boston Ct, Denver, CO 80239","lat":39.7920577,"lng":-104.8798508},{"name":"Fred Thomas Park","url":"","address":"2400 Quebec St, Denver, CO 80207","lat":39.75255,"lng":-104.900835},{"name":"Stapleton Off-Leash Dog Park","url":"","address":"2400 Quebec St, Denver, CO 80207","lat":39.75255,"lng":-104.900835},{"name":"Denver Zoo","url":"denverzoo.org","address":"2300 Steele St, Denver, CO 80205","lat":39.7502165,"lng":-104.9501058}]},{"name":"Retail\/Grocery","marker":{"url":"http:\/\/staging.mint.mtcdev.com\/wp-content\/uploads\/2017\/03\/poi-marker.png","width":12,"height":12},"pois":[{"name":"Off Broadway Shoe Warehouse","url":"offbroadwayshoes.com","address":"8510 Northfield Blvd, Denver, CO 80238","lat":39.7853616,"lng":-104.888822},{"name":"Macy's","url":"l.macys.com","address":"8298 Northfield Blvd, Denver, CO 80238","lat":39.7845767,"lng":-104.8919249},{"name":"Old Navy","url":"oldnavy.com","address":"8560 E 49th Ave, Denver, CO 80238","lat":39.7817279,"lng":-104.8888774},{"name":"Famous Footwear","url":"famousfootwear.com","address":"8560 E 49th Ave, Denver, CO 80238","lat":39.7817279,"lng":-104.8888774},{"name":"Charlotte Russe","url":"charlotterusse.com","address":"8316 Northfield Blvd, Denver, CO 80238","lat":39.7815929,"lng":-104.891716},{"name":"My Best Friend's Closet Northfield","url":"mybestfriendsclosetcolorado.com","address":"8316 Northfield Blvd, Denver, CO 80238","lat":39.7815929,"lng":-104.891716},{"name":"Yankee Candle","url":"yankeecandle.com","address":"8354 E 49th Ave, Denver, CO 80238","lat":39.7827397,"lng":-104.8914165},{"name":"Zumiez","url":"zumiez.com","address":"8270 49th Ave, #1475, Denver, CO 80238","lat":39.7852207,"lng":-104.8919649},{"name":"Journeys","url":"journeys.com","address":"8340 Northfield Blvd, #1465, Denver, CO 80238","lat":39.7820538,"lng":-104.892523},{"name":"Claire's","url":"claires.com","address":"8340 E 49th Ave, #1670, Denver, CO 80238","lat":39.7819645,"lng":-104.8914871},{"name":"Charming Charlie","url":"charmingcharlie.com","address":"8246 E 49th Ave, #1410, Denver, CO 80238","lat":39.7852704,"lng":-104.8924319},{"name":"New York & Company","url":"nyandcompany.com","address":"8216 Northfield Blvd, #1343, Denver, CO 80238","lat":39.7831256,"lng":-104.8922329},{"name":"Jos. A. Bank","url":"josabank.com","address":"8216 Northfield Blvd, #1320, Denver, CO 80238","lat":39.7831256,"lng":-104.8922329},{"name":"Bath & Body Works","url":"bathandbodyworks.com","address":"8370 E 49th Ave, #1770, Denver, CO 80238","lat":39.7854657,"lng":-104.8898562},{"name":"Victoria's Secret & PINK","url":"victoriassecret.com","address":"8370 E 49th Ave, #1780, Denver, CO 80238","lat":39.7854657,"lng":-104.8898562},{"name":"Walmart Supercenter","url":"walmart.com","address":"5990 Dahlia St, Commerce City, CO 80022","lat":39.8045912,"lng":-104.9280387},{"name":"King Soopers","url":"kingsoopers.com","address":"4850 E 62nd Ave, Commerce City, CO 80022","lat":39.808685,"lng":-104.9305453},{"name":"Work Wear Boots","url":"workwearboots.com","address":"4952 E 62nd Ave, Commerce City, CO 80022","lat":39.8091803,"lng":-104.9292322},{"name":"Rent-A-Center","url":"rentacenter.com","address":"4792 E 62nd Ave, Commerce City, CO 80022","lat":39.8096086,"lng":-104.931082},{"name":"Aaron's","url":"aarons.com","address":"5996 E 64th Ave, Commerce City, CO 80022","lat":39.8114174,"lng":-104.9184808},{"name":"Mi Pueblo Market","url":"mipueblomarketco.com","address":"6040 E 64th Ave, Commerce City, CO 80022","lat":39.812098,"lng":-104.9180562},{"name":"Dollar Tree","url":"dollartree.com","address":"6000 E 64th Ave, Commerce City, CO 80022","lat":39.8127334,"lng":-104.9183096},{"name":"Family Dollar","url":"familydollar.com","address":"5947 E 64th Ave, Commerce City, CO 80022","lat":39.8133112,"lng":-104.9189778},{"name":"The Deck Superstore","url":"thedecksuperstore.com","address":"5961 E 64th Ave, Commerce City, CO 80022","lat":39.8141241,"lng":-104.9183372},{"name":"Daisy's Bridal","url":"","address":"6336 Ivy St, Commerce City, CO 80022","lat":39.8124511,"lng":-104.9197882},{"name":"Home Thrift Shop","url":"","address":"5715 E 63rd Pl, Commerce City, CO 80022","lat":39.812193,"lng":-104.920487},{"name":"La Pradera Meat Market","url":"","address":"5650 E 64th Ave, Commerce City, CO 80022","lat":39.8125796,"lng":-104.9213121},{"name":"Shop 'n Save","url":"shopnsave.com","address":"7191 Quebec St, Commerce City, CO 80022","lat":39.8269514,"lng":-104.9036277},{"name":"Save-A-Lot","url":"save-a-lot.com","address":"7290 Monaco St, Commerce City, CO 80022","lat":39.8290718,"lng":-104.9116436},{"name":"Ross Dress for Less","url":"rossstores.com","address":"7506 E 36th Ave, Denver, CO 80238","lat":39.7669397,"lng":-104.90045},{"name":"Office Depot","url":"officedepot.com","address":"7305 E 36th Ave, Denver, CO 80238","lat":39.7674573,"lng":-104.9024748},{"name":"GameStop","url":"gamestop.com","address":"7505 E 35th Ave, Denver, CO 80238","lat":39.7658958,"lng":-104.9002889},{"name":"PetSmart","url":"petsmart.com","address":"7505 E 35th Ave, Denver, CO 80238","lat":39.7658958,"lng":-104.9002889},{"name":"Sally Beauty","url":"sallybeauty.com","address":"7505 E 35th Ave, Denver, CO 80207","lat":39.7658884,"lng":-104.9002938},{"name":"Sam's Club","url":"samsclub.com","address":"7805 E 35th Ave, Denver, CO 80238","lat":39.7661817,"lng":-104.8975378},{"name":"Party City","url":"partycity.com","address":"7757 E 36th Ave, Denver, CO 80238","lat":39.7682566,"lng":-104.897705},{"name":"rue21","url":"rue21.com","address":"7757 E 36th Ave, Denver, CO 80238","lat":39.7682566,"lng":-104.897705},{"name":"Big 5 Sporting Goods","url":"big5sportinggoods.com","address":"7306 E 36th Ave, Denver, CO 80222","lat":39.7671273,"lng":-104.9021511}]},{"name":"Services","marker":{"url":"http:\/\/staging.mint.mtcdev.com\/wp-content\/uploads\/2017\/03\/poi-marker.png","width":12,"height":12},"pois":[{"name":"Ergo Aveda Lifestyle Salon and Spa","url":"ergobeauty.com","address":"8216 Northfield Blvd, Denver, CO 80238","lat":39.7831256,"lng":-104.8922329},{"name":"Derick Figaro Hair + Makeup","url":"derickfigaro.com","address":"8384 Northfield Blvd, Denver, CO 80238","lat":39.7840123,"lng":-104.8914675},{"name":"United States Postal Service","url":"","address":"7550 E 53rd Pl, Denver, CO 80217","lat":39.7900547,"lng":-104.9004087},{"name":"Wells Fargo Bank","url":"wellsfargo.com","address":"6025 E Parkway Dr, Commerce City, CO 80022","lat":39.8070785,"lng":-104.93072},{"name":"Commerce City Family Dental","url":"commercecityfamilydental.com","address":"4972 E 62nd Ave, Commerce City, CO 80022","lat":39.8090766,"lng":-104.9283494},{"name":"Great Clips","url":"greatclips.com","address":"4952 E 62nd Ave, Commerce City, CO 80022","lat":39.8091803,"lng":-104.9292322},{"name":"Bella Salon and Spa","url":"","address":"6340 Ivy St, Commerce City, CO 80022","lat":39.8125775,"lng":-104.9197871},{"name":"California Beauty Salon","url":"","address":"5745 E 63rd Pl, Commerce City, CO 80022","lat":39.8120241,"lng":-104.9203795},{"name":"Community Choice Credit Union","url":"communitychoicecreditunion.com","address":"6921 E 72nd Ave, Commerce City, CO 80022","lat":39.8275935,"lng":-104.9076305},{"name":"Nails of the World","url":"","address":"7505 E 35th Ave, Denver, CO 80238","lat":39.7658958,"lng":-104.9002889},{"name":"Alliant Credit Union","url":"alliantcreditunion.org","address":"7505 E 35th Ave, Denver, CO 80238","lat":39.7658958,"lng":-104.9002889},{"name":"Vectra Bank","url":"vectrabank.com","address":"3600 Quebec St, Denver, CO 80207","lat":39.7676714,"lng":-104.9021952},{"name":"FedEx Office Print & Ship Center","url":"fedex.com","address":"3545 Quebec St, Denver, CO 80207","lat":39.7666386,"lng":-104.9047296},{"name":"CorePower Yoga","url":"corepoweryoga.com","address":"7485 E 29th Pl, Denver, CO 80238","lat":39.7584686,"lng":-104.9007537},{"name":"Bladium Sports & Fitness Club","url":"bladium.com","address":"2400 Central Park Blvd, Denver, CO 80238","lat":39.7520979,"lng":-104.8887878}]}],"property":{"property_name":"Mint","address":"000 Anywhere St.","city":"Stapleton","state":"CO","zip":"00000","lat":39.760205,"lng":-104.890968,"property_map_marker":{"url":"http:\/\/staging.mint.mtcdev.com\/wp-content\/uploads\/2017\/03\/property-map-marker.png","width":43,"height":46}}}